{
"geo":[
{ "name":"北京大学",
            "location":{
                "lat":39.998877,
                "lng":116.316833
            },
            "rank":1,
            "address":"北京市海淀区颐和园路5号",
            "province":"北京市",
            "city":"北京市",
            "area":"海淀区"},
{ "name":"清华大学",
            "location":{
                "lat":40.009545,
                "lng":116.333134
            },
            "rank":2,
            "address":"北京市海淀区双清路30号",
            "province":"北京市",
            "city":"北京市",
            "area":"海淀区"},
{ "name":"复旦大学",
            "location":{
                "lat":31.301868,
                "lng":121.510766
            },
            "rank":3,
            "address":"上海市杨浦区邯郸路220号",
            "province":"上海市",
            "city":"上海市",
            "area":"杨浦区"},
{ "name":"上海交通大学",
            "location":{
                "lat":31.205568,
                "lng":121.439446
            },
            "rank":4,
            "address":"上海市徐汇区华山路1954号",
            "province":"上海市",
            "city":"上海市",
            "area":"徐汇区"},
{ "name":"武汉大学",
            "location":{
                "lat":30.544165,
                "lng":114.371605
            },
            "rank":5,
            "address":"湖北省武汉市武昌区珞珈山路16号",
            "province":"湖北省",
            "city":"武汉市",
            "area":"武昌区"},
{ "name":"浙江大学",
            "location":{
                "lat":30.308693,
                "lng":120.09334
            },
            "rank":6,
            "address":"杭州市西湖区余杭塘路866号",
            "province":"浙江省",
            "city":"杭州市",
            "area":"西湖区"},
{ "name":"中国人民大学",
            "location":{
                "lat":39.976546,
                "lng":116.319769
            },
            "rank":7,
            "address":"北京市海淀区中关村大街59号",
            "province":"北京市",
            "city":"北京市",
            "area":"海淀区"},
{ "name":"南京大学",
            "location":{
                "lat":32.125421,
                "lng":118.964891
            },
            "rank":8,
            "address":"江苏省南京市栖霞区仙林大道163号",
            "province":"江苏省",
            "city":"南京市",
            "area":"栖霞区"},
{ "name":"吉林大学",
            "location":{
                "lat":43.828854,
                "lng":125.285531
            },
            "rank":9,
            "address":"吉林省长春市朝阳区前进大街2699号",
            "province":"吉林省",
            "city":"长春市",
            "area":"朝阳区"},
{ "name":"中山大学",
            "location":{
                "lat":23.108981,
                "lng":113.308785
            },
            "rank":10,
            "address":"观光巴士城市新中轴线",
            "province":"广东省",
            "city":"广州市",
            "area":"海珠区"},
{  "name":"北京师范大学",
            "location":{
                "lat":39.967345,
                "lng":116.372141
            },
            "rank":11,
            "address":"北京市海淀区新街口外大街19号",
            "province":"北京市",
            "city":"北京市",
            "area":"海淀区"},
{ "name":"华中科技大学",
            "location":{
                "lat":30.518754,
                "lng":114.419826
            },
            "rank":12,
            "address":"湖北省武汉市洪山区珞喻路1037号",
            "province":"湖北省",
            "city":"武汉市",
            "area":"洪山区"},
{ "name":"四川大学",
            "location":{
                "lat":30.646763,
                "lng":104.075894
            },
            "rank":13,
            "address":"成都市武侯区人民南路三段17号",
            "province":"四川省",
            "city":"成都市",
            "area":"武侯区"},
{ "name":"中国科学技术大学",
            "location":{
                "lat":31.842919,
                "lng":117.276137
            },
            "rank":14,
            "address":"合肥市包河区金寨路96号",
            "province":"安徽省",
            "city":"合肥市",
            "area":"包河区"},
{ "name":"南开大学",
            "location":{
                "lat":39.109358,
                "lng":117.175215
            },
            "rank":15,
            "address":"天津市南开区卫津路94号",
            "province":"天津市",
            "city":"天津市",
            "area":"南开区"  },
{ "name":"山东大学",
            "location":{
                "lat":36.681366,
                "lng":117.066638
            },
            "rank":16,
            "address":"济南市历城区山大南路27号",
            "province":"山东省",
            "city":"济南市",
            "area":"历城区"},
{ "name":"中南大学",
            "location":{
                "lat":28.1772,
                "lng":112.934197
            },
            "rank":17,
            "address":"长沙市岳麓区麓山南路932号",
            "province":"湖南省",
            "city":"长沙市",
            "area":"岳麓区"},
{ "name":"西安交通大学",
            "location":{
                "lat":34.252359,
                "lng":108.990166
            },
            "rank":18,
            "address":"陕西省西安市碑林区咸宁西路28号",
            "province":"陕西省",
            "city":"西安市",
            "area":"碑林区"},
{ "name":"厦门大学",
            "location":{
                "lat":24.442647,
                "lng":118.111907
            },
            "rank":19,
            "address":"厦门市思明区思明南路422号",
            "province":"福建省",
            "city":"厦门市",
            "area":"思明区"},
{  "name":"哈尔滨工业大学",
            "location":{
                "lat":45.749057,
                "lng":126.639003
            },
            "rank":20,
            "address":"黑龙江省哈尔滨市南岗区西大直街92号",
            "province":"黑龙江省",
            "city":"哈尔滨市",
            "area":"南岗区"},
{ "name":"北京航空航天大学",
            "location":{
                "lat":39.98766,
                "lng":116.353792
            },
            "rank":21,
            "address":"北京市海淀区学院路37号",
            "province":"北京市",
            "city":"北京市",
            "area":"海淀区"},
{ "name":"同济大学",
            "location":{
                "lat":31.288995,
                "lng":121.508314
            },
            "rank":22,
            "address":"上海市杨浦区四平路1239号",
            "province":"上海市",
            "city":"上海市",
            "area":"杨浦区"},
{ "name":"天津大学北洋园校区",
            "location":{
                "lat":39.002496,
                "lng":117.331106
            },
            "rank":23,
            "address":"天津市津南区建明村路天津大学北洋校区",
            "province":"天津市",
            "city":"天津市",
            "area":"津南区"},
{ "name":"华东师范大学",
            "location":{
                "lat":31.233563,
                "lng":121.411329
            },
            "rank":24,
            "address":"上海市普陀区中山北路3663号",
            "province":"上海市",
            "city":"上海市",
            "area":"普陀区"},
{ "name":"东南大学",
            "location":{
                "lat":31.893974,
                "lng":118.82648
            },
            "rank":25,
            "address":"南京市江宁区东南大学路2号",
            "province":"江苏省",
            "city":"南京市",
            "area":"江宁区"},
{ "name":"中国农业大学",
            "location":{
                "lat":40.010789,
                "lng":116.363621
            },
            "rank":26,
            "address":"北京市海淀区清华东路17号",
            "province":"北京市",
            "city":"北京市",
            "area":"海淀区"},
{ "name":"华南理工大学",
            "location":{
                "lat":23.161069,
                "lng":113.351557
            },
            "rank":27,
            "address":"广州市天河区五山路381号",
            "province":"广东省",
            "city":"广州市",
            "area":"天河区"},
{ "name":"湖南大学",
            "location":{
                "lat":28.18533,
                "lng":112.951347
            },
            "rank":28,
            "address":"长沙市岳麓区麓山南路2号",
            "province":"湖南省",
            "city":"长沙市",
            "area":"岳麓区"},
{"name":"西北工业大学",
            "location":{
                "lat":34.247096,
                "lng":108.923421
            },
            "rank":29,
            "address":"友谊西路127号",
            "province":"陕西省",
            "city":"西安市",
            "area":"碑林区"},
{ "name":"大连理工大学",
            "location":{
                "lat":38.888106,
                "lng":121.531261
            },
            "rank":30,
            "address":"辽宁省大连市甘井子区凌工路2号",
            "province":"辽宁省",
            "city":"大连市",
            "area":"甘井子区"},
{ "name":"北京理工大学",
            "location":{
                "lat":39.965985,
                "lng":116.321936
            },
            "rank":31,
            "address":"北京市海淀区中关村南大街5号",
            "province":"北京市",
            "city":"北京市",
            "area":"海淀区"},
{ "name":"重庆大学",
            "location":{
                "lat":29.573424,
                "lng":106.470477
            },
            "rank":32,
            "address":"重庆市沙坪坝区正街174号",
            "province":"重庆市",
            "city":"重庆市",
            "area":"沙坪坝区"},
{ "name":"东北大学",
            "location":{
                "lat":41.771072,
                "lng":123.425144
            },
            "rank":33,
            "address":"沈阳市和平区文化路3号巷11号",
            "province":"辽宁省",
            "city":"沈阳市",
            "area":"和平区"},
{ "name":"兰州大学",
            "location":{
                "lat":36.052393,
                "lng":103.866202
            },
            "rank":34,
            "address":"甘肃省兰州市城关区天水南路222号",
            "province":"甘肃省",
            "city":"兰州市",
            "area":"城关区"},
{ "name":"中国海洋大学",
            "location":{
                "lat":36.167816,
                "lng":120.505352
            },
            "rank":35,
            "address":"山东省青岛市崂山区松岭路238号 ",
            "province":"山东省",
            "city":"青岛市",
            "area":"崂山区"},
{ "name":"电子科技大学",
            "location":{
                "lat":30.756035,
                "lng":103.937404
            },
            "rank":36,
            "address":"四川省成都市高新区西源大道2006号",
            "province":"四川省",
            "city":"成都市",
            "area":"郫都区"},
{ "name":"西北农林科技大学",
            "location":{
                "lat":34.291642,
                "lng":108.079342
            },
            "rank":37,
            "address":"咸阳市杨陵区杨凌示范区西农路22号",
            "province":"陕西省",
            "city":"咸阳市",
            "area":"杨陵区"},
{ "name":"中央民族大学",
            "location":{
                "lat":39.956475,
                "lng":116.327057
            },
            "rank":38,
            "address":"北京市海淀区中关村南大街27号",
            "province":"北京市",
            "city":"北京市",
            "area":"海淀区"},
{ "name":"国防科大",
            "location":{
                "lat":28.235546,
                "lng":113.00609
            },
            "rank":39,
            "address":"长沙市开福区砚瓦池正街",
            "province":"湖南省",
            "city":"长沙市",
            "area":"开福区"}
]
}
